{"resourceType":"Location","id":"81c75a54-2b95-3fdf-9327-b74df8630869","meta":{"profile":["http://hl7.org/fhir/us/core/StructureDefinition/us-core-location"]},"identifier":[{"system":"https://github.com/synthetichealth/synthea","value":"81c75a54-2b95-3fdf-9327-b74df8630869"}],"status":"active","name":"Fitchburg Outpatient Clinic","telecom":[{"system":"phone","value":"978-342-9781 Or 978-342-9781"}],"address":{"line":["881 Main Street"],"city":"Fitchburg","state":"MA","postalCode":"01420","country":"US"},"position":{"longitude":-71.80521,"latitude":42.586487},"managingOrganization":{"identifier":{"system":"https://github.com/synthetichealth/synthea","value":"74ab949d-17ac-3309-83a0-13b4405c66aa"},"display":"Fitchburg Outpatient Clinic"}}
{"resourceType":"Location","id":"7589c3dd-8f0d-3562-a1f5-4b376e2199fd","meta":{"profile":["http://hl7.org/fhir/us/core/StructureDefinition/us-core-location"]},"identifier":[{"system":"https://github.com/synthetichealth/synthea","value":"7589c3dd-8f0d-3562-a1f5-4b376e2199fd"}],"status":"active","name":"UMASS MEMORIAL HEALTHALLIANCE CLINTON HOSPITAL INC","telecom":[{"system":"phone","value":"9784662000"}],"address":{"line":["60 HOSPITAL RD"],"city":"LEOMINSTER","state":"MA","postalCode":"014533290","country":"US"},"position":{"longitude":-71.76312990486304,"latitude":42.54031915},"managingOrganization":{"identifier":{"system":"https://github.com/synthetichealth/synthea","value":"e09d4c49-c2ef-3b0f-9a46-3719d9219306"},"display":"UMASS MEMORIAL HEALTHALLIANCE CLINTON HOSPITAL INC"}}
{"resourceType":"Location","id":"2d8335a7-e37a-3004-9254-6f7de59ab66a","meta":{"profile":["http://hl7.org/fhir/us/core/StructureDefinition/us-core-location"]},"identifier":[{"system":"https://github.com/synthetichealth/synthea","value":"2d8335a7-e37a-3004-9254-6f7de59ab66a"}],"status":"active","name":"THE LOWELL GENERAL HOSPITAL","telecom":[{"system":"phone","value":"9789376000"}],"address":{"line":["295 VARNUM AVE"],"city":"WESTFORD","state":"MA","postalCode":"018863513","country":"US"},"position":{"longitude":-71.4378411,"latitude":42.5792583},"managingOrganization":{"identifier":{"system":"https://github.com/synthetichealth/synthea","value":"5fcff9db-16e4-3e56-aa78-abbc16338097"},"display":"THE LOWELL GENERAL HOSPITAL"}}
{"resourceType":"Location","id":"979976c9-e561-3558-8e1c-3fa59c3833c3","meta":{"profile":["http://hl7.org/fhir/us/core/StructureDefinition/us-core-location"]},"identifier":[{"system":"https://github.com/synthetichealth/synthea","value":"979976c9-e561-3558-8e1c-3fa59c3833c3"}],"status":"active","name":"COMMUNITY HEALTH CONNECTIONS","telecom":[{"system":"phone","value":"9788788100"}],"address":{"line":["326 NICHOLS ROAD"],"city":"FITCHBURG","state":"MA","postalCode":"014205478","country":"US"},"position":{"longitude":-71.80761197366103,"latitude":42.5974358},"managingOrganization":{"identifier":{"system":"https://github.com/synthetichealth/synthea","value":"ede4a423-6258-3ef5-b5ba-0fa6bb579563"},"display":"COMMUNITY HEALTH CONNECTIONS"}}
{"resourceType":"Location","id":"e1b75bf5-d1a1-36de-a7ed-109c0970bbce","meta":{"profile":["http://hl7.org/fhir/us/core/StructureDefinition/us-core-location"]},"identifier":[{"system":"https://github.com/synthetichealth/synthea","value":"e1b75bf5-d1a1-36de-a7ed-109c0970bbce"}],"status":"active","name":"NEW ENGLAND FAMILY HEALTH LLC","telecom":[{"system":"phone","value":"5082150015"}],"address":{"line":["463 WORCESTER RD"],"city":"FRAMINGHAM","state":"MA","postalCode":"017015354","country":"US"},"position":{"longitude":-71.4413097,"latitude":42.3095704},"managingOrganization":{"identifier":{"system":"https://github.com/synthetichealth/synthea","value":"ea153d0a-9ccc-3769-9a25-934b417071b7"},"display":"NEW ENGLAND FAMILY HEALTH LLC"}}
{"resourceType":"Location","id":"3ddd497e-aaa3-343e-ba14-ec8f3e115633","meta":{"profile":["http://hl7.org/fhir/us/core/StructureDefinition/us-core-location"]},"identifier":[{"system":"https://github.com/synthetichealth/synthea","value":"3ddd497e-aaa3-343e-ba14-ec8f3e115633"}],"status":"active","name":"LIFE CARE CENTER OF ACTON","telecom":[{"system":"phone","value":"9782639101"}],"address":{"line":["ONE GREAT ROAD"],"city":"ACTON","state":"MA","postalCode":"017205601","country":"US"},"position":{"longitude":-71.43284,"latitude":42.4850931},"managingOrganization":{"identifier":{"system":"https://github.com/synthetichealth/synthea","value":"b3ada130-6443-3a8e-98c7-4ec127a2b0c4"},"display":"LIFE CARE CENTER OF ACTON"}}
{"resourceType":"Location","id":"75397554-1bd8-310b-9764-bbff41da2814","meta":{"profile":["http://hl7.org/fhir/us/core/StructureDefinition/us-core-location"]},"identifier":[{"system":"https://github.com/synthetichealth/synthea","value":"75397554-1bd8-310b-9764-bbff41da2814"}],"status":"active","name":"ENCOMPASS HEALTH REHAB HOSPITAL OF WESTERN MASS","telecom":[{"system":"phone","value":"4135897581"}],"address":{"line":["222 STATE STREET"],"city":"LUDLOW","state":"MA","postalCode":"010563437","country":"US"},"position":{"longitude":-72.47222226666076,"latitude":42.15547415},"managingOrganization":{"identifier":{"system":"https://github.com/synthetichealth/synthea","value":"0fab3c4e-a028-39a6-b15a-be5a88b6aa2a"},"display":"ENCOMPASS HEALTH REHAB HOSPITAL OF WESTERN MASS"}}
{"resourceType":"Location","id":"0a6d5a96-47be-30f7-b20c-c49f38fde2a1","meta":{"profile":["http://hl7.org/fhir/us/core/StructureDefinition/us-core-location"]},"identifier":[{"system":"https://github.com/synthetichealth/synthea","value":"0a6d5a96-47be-30f7-b20c-c49f38fde2a1"}],"status":"active","name":"COOLEY DICKINSON HOSPITAL INC","telecom":[{"system":"phone","value":"4135822000"}],"address":{"line":["30 LOCUST ST"],"city":"NORTHAMPTON","state":"MA","postalCode":"010602052","country":"US"},"position":{"longitude":-72.65330802608176,"latitude":42.33032115},"managingOrganization":{"identifier":{"system":"https://github.com/synthetichealth/synthea","value":"b8421363-9807-3b16-a146-95336eea5cfb"},"display":"COOLEY DICKINSON HOSPITAL INC"}}
{"resourceType":"Location","id":"548214e3-2a8e-3881-ae52-56c7540e3527","meta":{"profile":["http://hl7.org/fhir/us/core/StructureDefinition/us-core-location"]},"identifier":[{"system":"https://github.com/synthetichealth/synthea","value":"548214e3-2a8e-3881-ae52-56c7540e3527"}],"status":"active","name":"LAKEVILLE FAMILY MEDICINE PC","telecom":[{"system":"phone","value":"5089476666"}],"address":{"line":["5 PRECINCT ST"],"city":"LAKEVILLE","state":"MA","postalCode":"023471468","country":"US"},"position":{"longitude":-70.95195924208448,"latitude":41.8455651},"managingOrganization":{"identifier":{"system":"https://github.com/synthetichealth/synthea","value":"19a65317-5d32-355e-8f82-88933d48366d"},"display":"LAKEVILLE FAMILY MEDICINE PC"}}
{"resourceType":"Location","id":"22877edf-cfc1-3bec-b9c5-e2b5e9a5d1c4","meta":{"profile":["http://hl7.org/fhir/us/core/StructureDefinition/us-core-location"]},"identifier":[{"system":"https://github.com/synthetichealth/synthea","value":"22877edf-cfc1-3bec-b9c5-e2b5e9a5d1c4"}],"status":"active","name":"CENTER FOR EXTENDED CARE AT AMHERST","telecom":[{"system":"phone","value":"4132568185"}],"address":{"line":["150 UNIVERSITY DRIVE"],"city":"AMHERST","state":"MA","postalCode":"010022232","country":"US"},"position":{"longitude":-72.53247107203978,"latitude":42.368937},"managingOrganization":{"identifier":{"system":"https://github.com/synthetichealth/synthea","value":"844a8cb2-4164-35b2-88b8-dffa2889a738"},"display":"CENTER FOR EXTENDED CARE AT AMHERST"}}
{"resourceType":"Location","id":"4f61b996-d531-33b1-a639-5802704c7751","meta":{"profile":["http://hl7.org/fhir/us/core/StructureDefinition/us-core-location"]},"identifier":[{"system":"https://github.com/synthetichealth/synthea","value":"4f61b996-d531-33b1-a639-5802704c7751"}],"status":"active","name":"BOSTON HEALTH CARE FOR THE HOMELESS PROGRAM INC","telecom":[{"system":"phone","value":"6177262707"}],"address":{"line":["55 FRUIT ST"],"city":"BOSTON","state":"MA","postalCode":"021142696","country":"US"},"position":{"longitude":-71.06875296664998,"latitude":42.36286045},"managingOrganization":{"identifier":{"system":"https://github.com/synthetichealth/synthea","value":"72f50aa0-d8c9-34dc-ac58-c428323f3bcd"},"display":"BOSTON HEALTH CARE FOR THE HOMELESS PROGRAM INC"}}
{"resourceType":"Location","id":"0b9636e4-045c-3489-9a61-53e087cda329","meta":{"profile":["http://hl7.org/fhir/us/core/StructureDefinition/us-core-location"]},"identifier":[{"system":"https://github.com/synthetichealth/synthea","value":"0b9636e4-045c-3489-9a61-53e087cda329"}],"status":"active","name":"BOSTON HOME, INC (THE)","telecom":[{"system":"phone","value":"6178253905"}],"address":{"line":["2049 DORCHESTER AVENUE"],"city":"BOSTON","state":"MA","postalCode":"021244742","country":"US"},"position":{"longitude":-71.060511,"latitude":42.3554334},"managingOrganization":{"identifier":{"system":"https://github.com/synthetichealth/synthea","value":"be509ccb-bfb7-3b87-8945-8426b689ef9d"},"display":"BOSTON HOME, INC (THE)"}}
{"resourceType":"Location","id":"83a16025-8bd6-3a60-8bd2-5cd9ac3fe799","meta":{"profile":["http://hl7.org/fhir/us/core/StructureDefinition/us-core-location"]},"identifier":[{"system":"https://github.com/synthetichealth/synthea","value":"83a16025-8bd6-3a60-8bd2-5cd9ac3fe799"}],"status":"active","name":"4499 ACUSHNET AVENUE OPERATING COMPANY, LLC","telecom":[{"system":"phone","value":"5089956900"}],"address":{"line":["4499 ACUSHNET AVE"],"city":"NEW BEDFORD","state":"MA","postalCode":"027454707","country":"US"},"position":{"longitude":-70.9450945705336,"latitude":41.74026055},"managingOrganization":{"identifier":{"system":"https://github.com/synthetichealth/synthea","value":"dd280187-8662-3732-af81-595d10572911"},"display":"4499 ACUSHNET AVENUE OPERATING COMPANY, LLC"}}
{"resourceType":"Location","id":"3c483209-a12d-349d-b486-c3854c7a2097","meta":{"profile":["http://hl7.org/fhir/us/core/StructureDefinition/us-core-location"]},"identifier":[{"system":"https://github.com/synthetichealth/synthea","value":"3c483209-a12d-349d-b486-c3854c7a2097"}],"status":"active","name":"CONTINUUM HEALTHCARE SOLUTIONS LLC","telecom":[{"system":"phone","value":"4135309616"}],"address":{"line":["52 OLNEY RD"],"city":"CHICOPEE","state":"MA","postalCode":"010202103","country":"US"},"position":{"longitude":-72.6071119,"latitude":42.1487691},"managingOrganization":{"identifier":{"system":"https://github.com/synthetichealth/synthea","value":"c5403c4f-14d5-3171-9227-a9b8327f3149"},"display":"CONTINUUM HEALTHCARE SOLUTIONS LLC"}}
{"resourceType":"Location","id":"301da097-aa4a-3b87-9f6f-b46c56f0038a","meta":{"profile":["http://hl7.org/fhir/us/core/StructureDefinition/us-core-location"]},"identifier":[{"system":"https://github.com/synthetichealth/synthea","value":"301da097-aa4a-3b87-9f6f-b46c56f0038a"}],"status":"active","name":"OAKS, THE","telecom":[{"system":"phone","value":"5089987807"}],"address":{"line":["4525 ACUSHNET AVENUE"],"city":"NEW BEDFORD","state":"MA","postalCode":"027454727","country":"US"},"position":{"longitude":-70.94731021257817,"latitude":41.74080975},"managingOrganization":{"identifier":{"system":"https://github.com/synthetichealth/synthea","value":"4ffc4e4b-9d8d-3c30-ad84-fc9a7209da94"},"display":"OAKS, THE"}}
{"resourceType":"Location","id":"ab557804-9cef-3574-92f3-faccf764e1c9","meta":{"profile":["http://hl7.org/fhir/us/core/StructureDefinition/us-core-location"]},"identifier":[{"system":"https://github.com/synthetichealth/synthea","value":"ab557804-9cef-3574-92f3-faccf764e1c9"}],"status":"active","name":"EMERSON HOSPITAL","telecom":[{"system":"phone","value":"9782873226"}],"address":{"line":["133 OLD ROAD TO 9 ACRE COR"],"city":"WESTFORD","state":"MA","postalCode":"018863198","country":"US"},"position":{"longitude":-71.4378411,"latitude":42.5792583},"managingOrganization":{"identifier":{"system":"https://github.com/synthetichealth/synthea","value":"06cc2462-430f-3322-9c87-7e971125f510"},"display":"EMERSON HOSPITAL"}}
{"resourceType":"Location","id":"b64fdbb3-9be7-317c-a90d-fa24b912c836","meta":{"profile":["http://hl7.org/fhir/us/core/StructureDefinition/us-core-location"]},"identifier":[{"system":"https://github.com/synthetichealth/synthea","value":"b64fdbb3-9be7-317c-a90d-fa24b912c836"}],"status":"active","name":"BLUEBERRY HILL REHABILITATION AND HEALTHCARE CTR","telecom":[{"system":"phone","value":"9789272020"}],"address":{"line":["75 BRIMBAL AVENUE"],"city":"BEVERLY","state":"MA","postalCode":"019156009","country":"US"},"position":{"longitude":-70.87108224250409,"latitude":42.570099299999995},"managingOrganization":{"identifier":{"system":"https://github.com/synthetichealth/synthea","value":"ee7fab6f-6438-394f-b1f2-3e452f8f055a"},"display":"BLUEBERRY HILL REHABILITATION AND HEALTHCARE CTR"}}
{"resourceType":"Location","id":"3ea65cb7-a072-322c-94ca-6a659412c6c1","meta":{"profile":["http://hl7.org/fhir/us/core/StructureDefinition/us-core-location"]},"identifier":[{"system":"https://github.com/synthetichealth/synthea","value":"3ea65cb7-a072-322c-94ca-6a659412c6c1"}],"status":"active","name":"CHELMSFORD PRIMARY CARE LLC","telecom":[{"system":"phone","value":"9782565522"}],"address":{"line":["2 MEETING HOUSE RD"],"city":"CHELMSFORD","state":"MA","postalCode":"018242700","country":"US"},"position":{"longitude":-71.35097894451894,"latitude":42.60140085},"managingOrganization":{"identifier":{"system":"https://github.com/synthetichealth/synthea","value":"7ac466c6-7968-33fd-882c-6d5418f88c8a"},"display":"CHELMSFORD PRIMARY CARE LLC"}}
{"resourceType":"Location","id":"adb59f43-8edb-38cf-b801-d02261e4de05","meta":{"profile":["http://hl7.org/fhir/us/core/StructureDefinition/us-core-location"]},"identifier":[{"system":"https://github.com/synthetichealth/synthea","value":"adb59f43-8edb-38cf-b801-d02261e4de05"}],"status":"active","name":"PRIMARY CARE NORTH PC","telecom":[{"system":"phone","value":"7815959581"}],"address":{"line":["225 BOSTON ST"],"city":"LYNN","state":"MA","postalCode":"019043124","country":"US"},"position":{"longitude":-70.96003668151566,"latitude":42.470497449999996},"managingOrganization":{"identifier":{"system":"https://github.com/synthetichealth/synthea","value":"936ceb96-2b12-371f-aa68-ee02a9c06f4c"},"display":"PRIMARY CARE NORTH PC"}}
{"resourceType":"Location","id":"afdd231b-767f-3d5c-a8fe-607bcae9c2a4","meta":{"profile":["http://hl7.org/fhir/us/core/StructureDefinition/us-core-location"]},"identifier":[{"system":"https://github.com/synthetichealth/synthea","value":"afdd231b-767f-3d5c-a8fe-607bcae9c2a4"}],"status":"active","name":"BAYSTATE MEDICAL CENTER INC.","telecom":[{"system":"phone","value":"4137940000"}],"address":{"line":["759 CHESTNUT ST"],"city":"SPRINGFIELD","state":"MA","postalCode":"011991001","country":"US"},"position":{"longitude":-72.60300615153007,"latitude":42.121522049999996},"managingOrganization":{"identifier":{"system":"https://github.com/synthetichealth/synthea","value":"a855314b-4fb5-37fc-8015-5caa96c928b1"},"display":"BAYSTATE MEDICAL CENTER INC."}}
{"resourceType":"Location","id":"c5de81bc-8f47-357b-af0b-ca4321dcab24","meta":{"profile":["http://hl7.org/fhir/us/core/StructureDefinition/us-core-location"]},"identifier":[{"system":"https://github.com/synthetichealth/synthea","value":"c5de81bc-8f47-357b-af0b-ca4321dcab24"}],"status":"active","name":"HALLMARK HEALTH URGENT CARE PHYSICIANS LLC","telecom":[{"system":"phone","value":"7812801699"}],"address":{"line":["30 NEW CROSSING RD"],"city":"READING","state":"MA","postalCode":"018673270","country":"US"},"position":{"longitude":-71.0959083715027,"latitude":42.51809619399502},"managingOrganization":{"identifier":{"system":"https://github.com/synthetichealth/synthea","value":"3e97ce4f-3ad7-3cea-883f-e2bb4ca89d83"},"display":"HALLMARK HEALTH URGENT CARE PHYSICIANS LLC"}}
{"resourceType":"Location","id":"9abf8887-4da2-3437-b6b1-cfab40b1721a","meta":{"profile":["http://hl7.org/fhir/us/core/StructureDefinition/us-core-location"]},"identifier":[{"system":"https://github.com/synthetichealth/synthea","value":"9abf8887-4da2-3437-b6b1-cfab40b1721a"}],"status":"active","name":"HILLTOWN COMMUNITY HEALTH CENTERS INC","telecom":[{"system":"phone","value":"4132385511"}],"address":{"line":["70 BOLTWOOD WALK"],"city":"AMHERST","state":"MA","postalCode":"010022271","country":"US"},"position":{"longitude":-72.51840280783739,"latitude":42.3768779},"managingOrganization":{"identifier":{"system":"https://github.com/synthetichealth/synthea","value":"4f59f709-8b84-3d27-a04b-c6b7b5544413"},"display":"HILLTOWN COMMUNITY HEALTH CENTERS INC"}}
{"resourceType":"Location","id":"de493cdb-173c-3c61-86f5-bbe3edf19dab","meta":{"profile":["http://hl7.org/fhir/us/core/StructureDefinition/us-core-location"]},"identifier":[{"system":"https://github.com/synthetichealth/synthea","value":"de493cdb-173c-3c61-86f5-bbe3edf19dab"}],"status":"active","name":"KINDRED AT HOME","telecom":[{"system":"phone","value":"4137331132"}],"address":{"line":["2069 ROOSEVELT AVENUE"],"city":"WEST SPRINGFIELD","state":"MA","postalCode":"010892595","country":"US"},"position":{"longitude":-72.6213712,"latitude":42.105237},"managingOrganization":{"identifier":{"system":"https://github.com/synthetichealth/synthea","value":"05cc5056-7af4-3afb-9a5a-d7a1c23a2509"},"display":"KINDRED AT HOME"}}
{"resourceType":"Location","id":"912f1c2d-7a47-39bd-9d0f-899e99282619","meta":{"profile":["http://hl7.org/fhir/us/core/StructureDefinition/us-core-location"]},"identifier":[{"system":"https://github.com/synthetichealth/synthea","value":"912f1c2d-7a47-39bd-9d0f-899e99282619"}],"status":"active","name":"CHESTNUT WOODS REHABILITATION AND HEALTHCARE CTR","telecom":[{"system":"phone","value":"7812338123"}],"address":{"line":["73 CHESTNUT STREET"],"city":"SAUGUS","state":"MA","postalCode":"019061605","country":"US"},"position":{"longitude":-70.9918055,"latitude":42.4573919},"managingOrganization":{"identifier":{"system":"https://github.com/synthetichealth/synthea","value":"c1986c0c-f756-3596-8f90-08adacf220fe"},"display":"CHESTNUT WOODS REHABILITATION AND HEALTHCARE CTR"}}
{"resourceType":"Location","id":"bd1f7dfc-41c0-35bd-b355-190e670ec663","meta":{"profile":["http://hl7.org/fhir/us/core/StructureDefinition/us-core-location"]},"identifier":[{"system":"https://github.com/synthetichealth/synthea","value":"bd1f7dfc-41c0-35bd-b355-190e670ec663"}],"status":"active","name":"ST PATRICK'S MANOR","telecom":[{"system":"phone","value":"5088798000"}],"address":{"line":["863 CENTRAL STREET"],"city":"FRAMINGHAM","state":"MA","postalCode":"017014813","country":"US"},"position":{"longitude":-71.42846215724606,"latitude":42.30758060362541},"managingOrganization":{"identifier":{"system":"https://github.com/synthetichealth/synthea","value":"7f32dd7d-5c35-3ddb-839b-8fbbb930d412"},"display":"ST PATRICK'S MANOR"}}
{"resourceType":"Location","id":"133c3947-2a20-3bea-bc7e-0019058a168a","meta":{"profile":["http://hl7.org/fhir/us/core/StructureDefinition/us-core-location"]},"identifier":[{"system":"https://github.com/synthetichealth/synthea","value":"133c3947-2a20-3bea-bc7e-0019058a168a"}],"status":"active","name":"HIGHLANDS, THE","telecom":[{"system":"phone","value":"9783434411"}],"address":{"line":["335 NICHOLS ROAD"],"city":"FITCHBURG","state":"MA","postalCode":"014201932","country":"US"},"position":{"longitude":-71.80841914533654,"latitude":42.598254850000004},"managingOrganization":{"identifier":{"system":"https://github.com/synthetichealth/synthea","value":"51d38e67-9350-39b8-bbb3-91cc879ae415"},"display":"HIGHLANDS, THE"}}
{"resourceType":"Location","id":"a3d9fbb2-8e79-3105-8bf0-ccd519a97ca2","meta":{"profile":["http://hl7.org/fhir/us/core/StructureDefinition/us-core-location"]},"identifier":[{"system":"https://github.com/synthetichealth/synthea","value":"a3d9fbb2-8e79-3105-8bf0-ccd519a97ca2"}],"status":"active","name":"RIVER'S EDGE PRIMARY CARE LLC","telecom":[{"system":"phone","value":"4136956774"}],"address":{"line":["821 E MAIN ST STE 3"],"city":"CHICOPEE","state":"MA","postalCode":"010206306","country":"US"},"position":{"longitude":-72.55672263289513,"latitude":42.155774795300516},"managingOrganization":{"identifier":{"system":"https://github.com/synthetichealth/synthea","value":"aad05540-c9cb-3805-b3c4-f9b9d9b42b2e"},"display":"RIVER'S EDGE PRIMARY CARE LLC"}}
{"resourceType":"Location","id":"956c981c-5bbc-3bac-b136-d53e114cc33f","meta":{"profile":["http://hl7.org/fhir/us/core/StructureDefinition/us-core-location"]},"identifier":[{"system":"https://github.com/synthetichealth/synthea","value":"956c981c-5bbc-3bac-b136-d53e114cc33f"}],"status":"active","name":"NORTH SHORE MEDICAL CENTER INC","telecom":[{"system":"phone","value":"9787410522"}],"address":{"line":["81 HIGHLAND AVE"],"city":"SALEM","state":"MA","postalCode":"019702714","country":"US"},"position":{"longitude":-70.90516241826194,"latitude":42.5112107},"managingOrganization":{"identifier":{"system":"https://github.com/synthetichealth/synthea","value":"af8566eb-8918-3ec7-ba44-92b6a2cf8097"},"display":"NORTH SHORE MEDICAL CENTER INC"}}
{"resourceType":"Location","id":"b33762ba-ac13-30b5-8f5d-39077ccd0e85","meta":{"profile":["http://hl7.org/fhir/us/core/StructureDefinition/us-core-location"]},"identifier":[{"system":"https://github.com/synthetichealth/synthea","value":"b33762ba-ac13-30b5-8f5d-39077ccd0e85"}],"status":"active","name":"URGENT CARE OPERATIONS PC","telecom":[{"system":"phone","value":"9789222171"}],"address":{"line":["50 DODGE ST"],"city":"SWAMPSCOTT","state":"MA","postalCode":"019071300","country":"US"},"position":{"longitude":-70.9171507,"latitude":42.4699241},"managingOrganization":{"identifier":{"system":"https://github.com/synthetichealth/synthea","value":"0e6c3ad1-24c1-34cb-bb6d-e8438fa319e2"},"display":"URGENT CARE OPERATIONS PC"}}
{"resourceType":"Location","id":"c5abd580-26ee-37c4-a7f7-69c98a4ee69e","meta":{"profile":["http://hl7.org/fhir/us/core/StructureDefinition/us-core-location"]},"identifier":[{"system":"https://github.com/synthetichealth/synthea","value":"c5abd580-26ee-37c4-a7f7-69c98a4ee69e"}],"status":"active","name":"ENCOMPASS HEALTH BRAINTREE HOSPITAL OF BRAINTREE","telecom":[{"system":"phone","value":"7818485353"}],"address":{"line":["250 POND STREET"],"city":"FRAMINGHAM","state":"MA","postalCode":"017014592","country":"US"},"position":{"longitude":-71.4093719,"latitude":42.2838619},"managingOrganization":{"identifier":{"system":"https://github.com/synthetichealth/synthea","value":"05fcf001-ab24-3d7d-85f7-f64942d82738"},"display":"ENCOMPASS HEALTH BRAINTREE HOSPITAL OF BRAINTREE"}}
{"resourceType":"Location","id":"4a965fe6-ab2b-3740-bb4b-ce27c570e2ed","meta":{"profile":["http://hl7.org/fhir/us/core/StructureDefinition/us-core-location"]},"identifier":[{"system":"https://github.com/synthetichealth/synthea","value":"4a965fe6-ab2b-3740-bb4b-ce27c570e2ed"}],"status":"active","name":"THE SHRINERS HOSPITAL FOR CHILDREN","telecom":[{"system":"phone","value":"1617722300"}],"address":{"line":["51 BLOSSOM ST"],"city":"BOSTON","state":"MA","postalCode":"021142699","country":"US"},"position":{"longitude":-71.06643399281765,"latitude":42.36305545},"managingOrganization":{"identifier":{"system":"https://github.com/synthetichealth/synthea","value":"9adfae03-673d-365d-9052-f705098fa3e4"},"display":"THE SHRINERS HOSPITAL FOR CHILDREN"}}
{"resourceType":"Location","id":"ec828444-a329-332a-af8e-df648ced7a7a","meta":{"profile":["http://hl7.org/fhir/us/core/StructureDefinition/us-core-location"]},"identifier":[{"system":"https://github.com/synthetichealth/synthea","value":"ec828444-a329-332a-af8e-df648ced7a7a"}],"status":"active","name":"WHITTIER REHABILTATION HOSPITAL","telecom":[{"system":"phone","value":"5088712063"}],"address":{"line":["150 FLANDERS ROAD"],"city":"LYNN","state":"MA","postalCode":"019042915","country":"US"},"position":{"longitude":-70.9494939,"latitude":42.466763},"managingOrganization":{"identifier":{"system":"https://github.com/synthetichealth/synthea","value":"89171335-b9c0-3326-98d6-a837d432b9fd"},"display":"WHITTIER REHABILTATION HOSPITAL"}}
{"resourceType":"Location","id":"1be621ef-e6e5-3cc1-aa08-29bd4a485f6b","meta":{"profile":["http://hl7.org/fhir/us/core/StructureDefinition/us-core-location"]},"identifier":[{"system":"https://github.com/synthetichealth/synthea","value":"1be621ef-e6e5-3cc1-aa08-29bd4a485f6b"}],"status":"active","name":"PATRIOT URGENT CARE PROFESSIONALS PC","telecom":[{"system":"phone","value":"7818946900"}],"address":{"line":["1030 MAIN STREET"],"city":"WALTHAM","state":"MA","postalCode":"024517447","country":"US"},"position":{"longitude":-71.2527956,"latitude":42.375828},"managingOrganization":{"identifier":{"system":"https://github.com/synthetichealth/synthea","value":"121b0ad1-1beb-3caa-9271-3d3f726bb727"},"display":"PATRIOT URGENT CARE PROFESSIONALS PC"}}
{"resourceType":"Location","id":"187ffa22-f0d4-3b78-9d80-cf3edbf9fe28","meta":{"profile":["http://hl7.org/fhir/us/core/StructureDefinition/us-core-location"]},"identifier":[{"system":"https://github.com/synthetichealth/synthea","value":"187ffa22-f0d4-3b78-9d80-cf3edbf9fe28"}],"status":"active","name":"CAPE ANN MEDICAL CENTER LLC","telecom":[{"system":"phone","value":"9782811500"}],"address":{"line":["1 BLACKBURN DR"],"city":"GLOUCESTER","state":"MA","postalCode":"019302237","country":"US"},"position":{"longitude":-70.65555242413386,"latitude":42.6269312},"managingOrganization":{"identifier":{"system":"https://github.com/synthetichealth/synthea","value":"c67ca7ed-4769-3b6c-a0a9-993f1227ff10"},"display":"CAPE ANN MEDICAL CENTER LLC"}}
{"resourceType":"Location","id":"bb1ad573-19b8-9cd8-68fb-0e6f684df992","identifier":[{"system":"https://github.com/synthetichealth/synthea","value":"bb1ad573-19b8-9cd8-68fb-0e6f684df992"}],"status":"active","description":"Patient's Home","mode":"kind","physicalType":{"coding":[{"system":"http://terminology.hl7.org/CodeSystem/location-physical-type","code":"ho","display":"House"}]}}
